{"clients":[{"phone":"+34342434234","passport":{"fullname":"User #1","number":"CM323453"}},{"phone":"+34342434234","passport":{"fullname":"User #3","number":"CM323453"}},{"phone":"+34342434234","passport":{"fullname":"User #5","number":"CM323453"}},{"phone":"+34342434234","passport":{"fullname":"User #7","number":"CM323453"}},{"phone":"+34342434234","passport":{"fullname":"User #9","number":"CM323453"}},{"phone":"+34342434234","passport":{"fullname":"User #11","number":"CM323453"}},{"phone":"+34342434234","passport":{"fullname":"User #13","number":"CM323453"}},{"phone":"+34342434234","passport":{"fullname":"User #15","number":"CM323453"}},{"phone":"+34342434234","passport":{"fullname":"User #17","number":"CM323453"}},{"phone":"+34342434234","passport":{"fullname":"User #19","number":"CM323453"}}],"tickets":[{"id":"0","client":{"phone":"+34342434234","passport":{"fullname":"User #1","number":"CM323453"}},"products":[{"name":"TV","size":{"length":66,"width":36,"height":73,"weight":99},"price":341}],"from":{"city":"Fastiv","street":"Tretya Str","houseNum":"21"},"to":{"city":"Fastiv","street":"Persha Str","houseNum":"29"},"creationDate":{"year":2016,"month":6,"day":24,"hours":17,"minutes":42},"estimationArrivalDate":{"year":2016,"month":6,"day":24,"hours":17,"minutes":42},"status":"NEW"},{"id":"1","client":{"phone":"+34342434234","passport":{"fullname":"User #3","number":"CM323453"}},"products":[{"name":"TV","size":{"length":51,"width":44,"height":69,"weight":37},"price":202}],"from":{"city":"Fastiv","street":"Tretya Str","houseNum":"6"},"to":{"city":"Kharkiv","street":"Persha Str","houseNum":"10"},"creationDate":{"year":2016,"month":6,"day":24,"hours":17,"minutes":42},"estimationArrivalDate":{"year":2016,"month":6,"day":24,"hours":17,"minutes":42},"status":"NEW"},{"id":"2","client":{"phone":"+34342434234","passport":{"fullname":"User #5","number":"CM323453"}},"products":[{"name":"Phone","size":{"length":71,"width":72,"height":51,"weight":4},"price":944}],"from":{"city":"Kharkiv","street":"Persha Str","houseNum":"32"},"to":{"city":"Kiyv","street":"Tretya Str","houseNum":"27"},"creationDate":{"year":2016,"month":6,"day":24,"hours":17,"minutes":42},"estimationArrivalDate":{"year":2016,"month":6,"day":24,"hours":17,"minutes":42},"status":"NEW"},{"id":"3","client":{"phone":"+34342434234","passport":{"fullname":"User #5","number":"CM323453"}},"products":[{"name":"Fridge","size":{"length":61,"width":21,"height":65,"weight":77},"price":12}],"from":{"city":"Kharkiv","street":"Persha Str","houseNum":"12"},"to":{"city":"Rivne","street":"Chet Str","houseNum":"35"},"creationDate":{"year":2016,"month":6,"day":24,"hours":17,"minutes":42},"estimationArrivalDate":{"year":2016,"month":6,"day":24,"hours":17,"minutes":42},"status":"NEW"},{"id":"4","client":{"phone":"+34342434234","passport":{"fullname":"User #1","number":"CM323453"}},"products":[{"name":"Phone","size":{"length":62,"width":80,"height":5,"weight":44},"price":683}],"from":{"city":"Rivne","street":"Chet Str","houseNum":"17"},"to":{"city":"Kharkiv","street":"Druga Str","houseNum":"2"},"creationDate":{"year":2016,"month":6,"day":26,"hours":17,"minutes":42},"estimationArrivalDate":{"year":2016,"month":6,"day":26,"hours":17,"minutes":42},"status":"NEW"},{"id":"5","client":{"phone":"+34342434234","passport":{"fullname":"User #5","number":"CM323453"}},"products":[{"name":"TV","size":{"length":59,"width":31,"height":67,"weight":91},"price":103}],"from":{"city":"Kiyv","street":"Druga Str","houseNum":"36"},"to":{"city":"Kharkiv","street":"Persha Str","houseNum":"36"},"creationDate":{"year":2016,"month":6,"day":24,"hours":17,"minutes":42},"estimationArrivalDate":{"year":2016,"month":6,"day":24,"hours":17,"minutes":42},"status":"NEW"},{"id":"6","client":{"phone":"+34342434234","passport":{"fullname":"User #11","number":"CM323453"}},"products":[{"name":"TV","size":{"length":40,"width":44,"height":63,"weight":49},"price":283}],"from":{"city":"Rivne","street":"Persha Str","houseNum":"48"},"to":{"city":"Fastiv","street":"Persha Str","houseNum":"25"},"creationDate":{"year":2016,"month":6,"day":24,"hours":17,"minutes":42},"estimationArrivalDate":{"year":2016,"month":6,"day":24,"hours":17,"minutes":42},"status":"NEW"},{"id":"7","client":{"phone":"+34342434234","passport":{"fullname":"User #1","number":"CM323453"}},"products":[{"name":"Microwave","size":{"length":44,"width":7,"height":47,"weight":74},"price":553}],"from":{"city":"Fastiv","street":"Tretya Str","houseNum":"35"},"to":{"city":"Kiyv","street":"Chet Str","houseNum":"0"},"creationDate":{"year":2016,"month":6,"day":25,"hours":17,"minutes":42},"estimationArrivalDate":{"year":2016,"month":6,"day":25,"hours":17,"minutes":42},"status":"NEW"},{"id":"8","client":{"phone":"+34342434234","passport":{"fullname":"User #9","number":"CM323453"}},"products":[{"name":"Phone","size":{"length":45,"width":44,"height":12,"weight":77},"price":969}],"from":{"city":"Kiyv","street":"Chet Str","houseNum":"36"},"to":{"city":"Rivne","street":"Chet Str","houseNum":"11"},"creationDate":{"year":2016,"month":6,"day":24,"hours":17,"minutes":42},"estimationArrivalDate":{"year":2016,"month":6,"day":24,"hours":17,"minutes":42},"status":"NEW"},{"id":"9","client":{"phone":"+34342434234","passport":{"fullname":"User #11","number":"CM323453"}},"products":[{"name":"Fridge","size":{"length":16,"width":64,"height":98,"weight":86},"price":182}],"from":{"city":"Rivne","street":"Chet Str","houseNum":"37"},"to":{"city":"Rivne","street":"Chet Str","houseNum":"19"},"creationDate":{"year":2016,"month":6,"day":26,"hours":17,"minutes":42},"estimationArrivalDate":{"year":2016,"month":6,"day":26,"hours":17,"minutes":42},"status":"NEW"}],"drivers":[],"transactions":[],"employees":[],"reports":[]}

