{"clients":[{"phone":"+34342434234","passport":{"fullname":"User #1","number":"CM323453"}},{"phone":"+34342434234","passport":{"fullname":"User #3","number":"CM323453"}},{"phone":"+34342434234","passport":{"fullname":"User #5","number":"CM323453"}},{"phone":"+34342434234","passport":{"fullname":"User #7","number":"CM323453"}},{"phone":"+34342434234","passport":{"fullname":"User #9","number":"CM323453"}},{"phone":"+34342434234","passport":{"fullname":"User #11","number":"CM323453"}},{"phone":"+34342434234","passport":{"fullname":"User #13","number":"CM323453"}},{"phone":"+34342434234","passport":{"fullname":"User #15","number":"CM323453"}},{"phone":"+34342434234","passport":{"fullname":"User #17","number":"CM323453"}},{"phone":"+34342434234","passport":{"fullname":"User #19","number":"CM323453"}}],"tickets":[{"id":"0","client":{"phone":"+34342434234","passport":{"fullname":"User #1","number":"CM323453"}},"products":[{"name":"Phone","size":{"length":41,"width":67,"height":16,"weight":88},"price":392}],"from":{"city":"Rivne","street":"Persha Str","houseNum":"29"},"to":{"city":"Fastiv","street":"Tretya Str","houseNum":"43"},"creationDate":{"year":2016,"month":6,"day":16,"hours":23,"minutes":10},"estimationArrivalDate":{"year":2016,"month":6,"day":16,"hours":23,"minutes":10},"status":"NEW"},{"id":"1","client":{"phone":"+34342434234","passport":{"fullname":"User #1","number":"CM323453"}},"products":[{"name":"Phone","size":{"length":54,"width":98,"height":18,"weight":94},"price":575}],"from":{"city":"Kiyv","street":"Tretya Str","houseNum":"26"},"to":{"city":"Fastiv","street":"Tretya Str","houseNum":"39"},"creationDate":{"year":2016,"month":6,"day":20,"hours":23,"minutes":10},"estimationArrivalDate":{"year":2016,"month":6,"day":20,"hours":23,"minutes":10},"status":"NEW"},{"id":"2","client":{"phone":"+34342434234","passport":{"fullname":"User #3","number":"CM323453"}},"products":[{"name":"Microwave","size":{"length":38,"width":39,"height":0,"weight":98},"price":800}],"from":{"city":"Kiyv","street":"Tretya Str","houseNum":"24"},"to":{"city":"Fastiv","street":"Chet Str","houseNum":"27"},"creationDate":{"year":2016,"month":6,"day":16,"hours":23,"minutes":10},"estimationArrivalDate":{"year":2016,"month":6,"day":16,"hours":23,"minutes":10},"status":"NEW"},{"id":"3","client":{"phone":"+34342434234","passport":{"fullname":"User #3","number":"CM323453"}},"products":[{"name":"Phone","size":{"length":25,"width":72,"height":11,"weight":37},"price":281}],"from":{"city":"Kiyv","street":"Tretya Str","houseNum":"8"},"to":{"city":"Rivne","street":"Chet Str","houseNum":"13"},"creationDate":{"year":2016,"month":6,"day":18,"hours":23,"minutes":10},"estimationArrivalDate":{"year":2016,"month":6,"day":18,"hours":23,"minutes":10},"status":"NEW"},{"id":"4","client":{"phone":"+34342434234","passport":{"fullname":"User #9","number":"CM323453"}},"products":[{"name":"Phone","size":{"length":9,"width":81,"height":15,"weight":75},"price":588}],"from":{"city":"Kharkiv","street":"Druga Str","houseNum":"24"},"to":{"city":"Rivne","street":"Persha Str","houseNum":"34"},"creationDate":{"year":2016,"month":6,"day":19,"hours":23,"minutes":10},"estimationArrivalDate":{"year":2016,"month":6,"day":19,"hours":23,"minutes":10},"status":"NEW"},{"id":"5","client":{"phone":"+34342434234","passport":{"fullname":"User #11","number":"CM323453"}},"products":[{"name":"Microwave","size":{"length":75,"width":92,"height":83,"weight":38},"price":517}],"from":{"city":"Fastiv","street":"Persha Str","houseNum":"14"},"to":{"city":"Rivne","street":"Druga Str","houseNum":"18"},"creationDate":{"year":2016,"month":6,"day":16,"hours":23,"minutes":10},"estimationArrivalDate":{"year":2016,"month":6,"day":16,"hours":23,"minutes":10},"status":"NEW"},{"id":"6","client":{"phone":"+34342434234","passport":{"fullname":"User #9","number":"CM323453"}},"products":[{"name":"Microwave","size":{"length":79,"width":40,"height":76,"weight":70},"price":623}],"from":{"city":"Rivne","street":"Druga Str","houseNum":"19"},"to":{"city":"Kiyv","street":"Tretya Str","houseNum":"45"},"creationDate":{"year":2016,"month":6,"day":16,"hours":23,"minutes":10},"estimationArrivalDate":{"year":2016,"month":6,"day":16,"hours":23,"minutes":10},"status":"NEW"},{"id":"7","client":{"phone":"+34342434234","passport":{"fullname":"User #9","number":"CM323453"}},"products":[{"name":"Microwave","size":{"length":36,"width":95,"height":2,"weight":69},"price":911}],"from":{"city":"Kharkiv","street":"Druga Str","houseNum":"26"},"to":{"city":"Kharkiv","street":"Persha Str","houseNum":"22"},"creationDate":{"year":2016,"month":6,"day":16,"hours":23,"minutes":10},"estimationArrivalDate":{"year":2016,"month":6,"day":16,"hours":23,"minutes":10},"status":"NEW"},{"id":"8","client":{"phone":"+34342434234","passport":{"fullname":"User #1","number":"CM323453"}},"products":[{"name":"Phone","size":{"length":58,"width":12,"height":79,"weight":42},"price":185}],"from":{"city":"Fastiv","street":"Tretya Str","houseNum":"6"},"to":{"city":"Kharkiv","street":"Druga Str","houseNum":"25"},"creationDate":{"year":2016,"month":6,"day":17,"hours":23,"minutes":10},"estimationArrivalDate":{"year":2016,"month":6,"day":17,"hours":23,"minutes":10},"status":"NEW"},{"id":"9","client":{"phone":"+34342434234","passport":{"fullname":"User #19","number":"CM323453"}},"products":[{"name":"Phone","size":{"length":96,"width":52,"height":50,"weight":42},"price":566}],"from":{"city":"Rivne","street":"Persha Str","houseNum":"35"},"to":{"city":"Kharkiv","street":"Persha Str","houseNum":"52"},"creationDate":{"year":2016,"month":6,"day":20,"hours":23,"minutes":10},"estimationArrivalDate":{"year":2016,"month":6,"day":20,"hours":23,"minutes":10},"status":"NEW"}],"drivers":[]}
